[
  {
    "name": "Delicious Diner",
    "image": "https://example.com/delicious-diner.jpg",
    "owner": "1234567890abcdef",
    "description": "A cozy diner with all your favorite comfort foods.",
    "address": {
      "street": "123 Main St",
      "city": "Anytown",
      "state": "CA",
      "postalCode": "12345",
      "country": "USA"
    },
    "phone": "555-123-4567",
    "menuItems": [],
    "orders": [],
    "coords": {
      "latitude": 37.1234,
      "longitude": -122.4567,
      "altitude": 100
    }
  },
  {
    "name": "Pizza Express",
    "image": "https://example.com/pizza-express.jpg",
    "owner": "60a46c29893d690015de8c08",
    "description": "We serve the best pizza in town!",
    "address": {
      "street": "123 Main Street",
      "city": "Los Angeles",
      "state": "CA",
      "postalCode": "90001",
      "country": "USA"
    },
    "phone": "555-1234",
    "menuItems": [],
    "orders": [],
    "coords": {
      "latitude": 34.0522,
      "longitude": -118.2437,
      "altitude": 0
    }
  },
  {
    "name": "Burger Shack",
    "image": "https://example.com/burger-shack.jpg",
    "owner": "60a46c29893d690015de8c09",
    "description": "Our burgers are the juiciest in town!",
    "address": {
      "street": "456 Oak Street",
      "city": "New York",
      "state": "NY",
      "postalCode": "10001",
      "country": "USA"
    },
    "phone": "555-5678",
    "menuItems": [],
    "orders": [],
    "coords": {
      "latitude": 40.7128,
      "longitude": -74.006,
      "altitude": 0
    }
  },
  {
    "name": "Taco Time",
    "image": "https://example.com/taco-time.jpg",
    "owner": "60a46c29893d690015de8c0a",
    "description": "We make the freshest tacos in town!",
    "address": {
      "street": "789 Elm Street",
      "city": "San Francisco",
      "state": "CA",
      "postalCode": "94101",
      "country": "USA"
    },
    "phone": "555-9012",
    "menuItems": [],
    "orders": [],
    "coords": {
      "latitude": 37.7749,
      "longitude": -122.4194,
      "altitude": 0
    }
  },
  {
    "name": "The Burger Joint",
    "image": "https://www.example.com/burgerjoint.jpg",
    "owner": "6156d73c1a57f6139bc80c32",
    "description": "We serve the best burgers in town!",
    "address": {
      "street": "123 Main St",
      "city": "Anytown",
      "state": "CA",
      "postalCode": "12345",
      "country": "USA"
    },
    "phone": "(123) 456-7890",
    "menuItems": [],
    "orders": [],
    "coords": {
      "latitude": 37.7749,
      "longitude": -122.4194,
      "altitude": 10
    }
  },
  {
    "name": "Pizza Palace",
    "image": "https://www.example.com/pizzapalace.jpg",
    "owner": "6156d73c1a57f6139bc80c32",
    "description": "We serve the best pizza in town!",
    "address": {
      "street": "456 Oak St",
      "city": "Anytown",
      "state": "CA",
      "postalCode": "12345",
      "country": "USA"
    },
    "phone": "(123) 456-7890",
    "menuItems": [],
    "orders": [],
    "coords": {
      "latitude": 37.7749,
      "longitude": -122.4194,
      "altitude": 10
    }
  },
  {
    "name": "Taco Time",
    "image": "https://www.example.com/tacotime.jpg",
    "owner": "6156d73c1a57f6139bc80c33",
    "description": "We serve the best tacos in town!",
    "address": {
      "street": "789 Pine St",
      "city": "Anytown",
      "state": "CA",
      "postalCode": "12345",
      "country": "USA"
    },
    "phone": "(123) 456-7890",
    "menuItems": [],
    "orders": [],
    "coords": {
      "latitude": 37.7749,
      "longitude": -122.4194,
      "altitude": 10
    }
  },
  {
    "name": "The Italian Job",
    "image": "https://www.example.com/images/italian-job.jpg",
    "owner": "609b879091de760015f6e5e5",
    "description": "Authentic Italian cuisine in a cozy atmosphere",
    "address": {
      "street": "123 Main St",
      "city": "New York",
      "state": "NY",
      "postalCode": "10001",
      "country": "USA"
    },
    "phone": "555-555-5555",
    "menuItems": [],
    "orders": [],
    "coords": {
      "latitude": 40.712776,
      "longitude": -74.005974,
      "altitude": 10
    }
  },
  {
    "name": "Sushi Time",
    "image": "https://www.example.com/images/sushi-time.jpg",
    "owner": "609b879091de760015f6e5e6",
    "description": "Fresh sushi and Japanese cuisine",
    "address": {
      "street": "456 First St",
      "city": "San Francisco",
      "state": "CA",
      "postalCode": "94105",
      "country": "USA"
    },
    "phone": "555-555-5555",
    "menuItems": [],
    "orders": [],
    "coords": {
      "latitude": 37.7749,
      "longitude": -122.4194,
      "altitude": 5
    }
  },
  {
    "name": "Sushi Palace",
    "image": "https://www.example.com/sushi-palace.jpg",
    "owner": "6155e5b77c2faa2d845a9856",
    "description": "Experience the best sushi in town!",
    "address": {
      "street": "123 Main Street",
      "city": "Los Angeles",
      "state": "CA",
      "postalCode": "90012",
      "country": "USA"
    },
    "phone": "555-1234",
    "menuItems": [],
    "orders": [],
    "coords": {
      "latitude": 34.0641,
      "longitude": -118.234,
      "altitude": 0
    }
  },
  {
    "name": "Burger Joint",
    "image": "https://www.example.com/burger-joint.jpg",
    "owner": "6155e5b77c2faa2d845a9856",
    "description": "The best burgers in town!",
    "address": {
      "street": "456 Oak Street",
      "city": "San Francisco",
      "state": "CA",
      "postalCode": "94102",
      "country": "USA"
    },
    "phone": "555-5678",
    "menuItems": [],
    "orders": [],
    "coords": {
      "latitude": 37.7749,
      "longitude": -122.4194,
      "altitude": 0
    }
  },
  {
    "name": "The Cheesy Pizza",
    "image": "https://images.unsplash.com/photo-1556909219-5e4b6f74113b",
    "owner": "60a1e2046a7b2c3f3c8c9599",
    "description": "We make the best pizza in town!",
    "address": {
      "street": "123 Main St",
      "city": "New York",
      "state": "NY",
      "postalCode": "10001",
      "country": "USA"
    },
    "phone": "555-555-1234",
    "menuItems": [],
    "orders": [],
    "coords": {
      "latitude": 40.7128,
      "longitude": -74.006
    }
  },
  {
    "name": "Sushi Paradise",
    "image": "https://images.unsplash.com/photo-1526861267863-3d3f3c4a9cf9",
    "owner": "60a1e2046a7b2c3f3c8c959a",
    "description": "Savor the freshest and most authentic sushi in the city.",
    "address": {
      "street": "456 Main St",
      "city": "San Francisco",
      "state": "CA",
      "postalCode": "94102",
      "country": "USA"
    },
    "phone": "555-555-5678",
    "menuItems": [],
    "orders": [],
    "coords": {
      "latitude": 37.7749,
      "longitude": -122.4194
    }
  }
]
